%time,field.header.seq,field.header.stamp,field.stamp_sonde,field.temp_c,field.spcond_u,field.sal,field.ph,field.orp,field.depth_m,field.turbidity_ntu,field.turbidity_fnu,field.odo_percsat,field.odo_m,field.latitude,field.longitude
9.12095129885007E+017,2002,9.12095129882928E+017,1.531414004E+018,24.5869998932,74.9899978638,0.0299999993,10.2600002289,125.080001831,-0.0970000029,0.7799999714,0.7799999714,109.269996643,9.1000003815,45.5437202454,-73.1535720825
9.12095130888253E+017,2003,9.12095130886517E+017,1.531414005E+018,24.5860004425,74.9899978638,0.0299999993,10.2600002289,125.089996338,-0.0970000029,0.7699999809,0.7699999809,109.269996643,9.1000003815,45.5436973572,-73.1535644531
9.12095131892281E+017,2004,9.12095131890064E+017,1.531414006E+018,24.5860004425,74.9899978638,0.0299999993,10.2600002289,125.11000061,-0.0970000029,0.7599999905,0.7599999905,109.269996643,9.1000003815,45.5436897278,-73.1535491943
9.12095132896928E+017,2005,9.12095132893877E+017,1.531414007E+018,24.5849990845,75,0.0299999993,10.2600002289,125.120002747,-0.0970000029,0.7699999809,0.7699999809,109.269996643,9.1000003815,45.5436897278,-73.1535491943
9.12095133900107E+017,2006,9.12095133898375E+017,1.531414008E+018,24.5849990845,75.0199966431,0.0299999993,10.2600002289,125.129997253,-0.0970000029,0.75,0.75,109.269996643,9.1000003815,45.5436706543,-73.1535415649
9.12095134902982E+017,2007,9.1209513490125E+017,1.531414009E+018,24.5849990845,75.0299987793,0.0299999993,10.2600002289,125.150001526,-0.0970000029,0.7699999809,0.7699999809,109.269996643,9.1000003815,45.5436630249,-73.1535491943
9.12095135907065E+017,2008,9.12095135905207E+017,1.53141401E+018,24.5839996338,75.0299987793,0.0299999993,10.2600002289,125.160003662,-0.0970000029,0.7699999809,0.7699999809,109.260002136,9.1000003815,45.5436630249,-73.1535491943
9.1209513691095E+017,2009,9.12095136908969E+017,1.531414011E+018,24.5830001831,75.0400009155,0.0299999993,10.2600002289,125.169998169,-0.0970000029,0.7799999714,0.7799999714,109.260002136,9.1000003815,45.5436477661,-73.1535339355
9.1209513791505E+017,2010,9.1209513791267E+017,1.531414012E+018,24.5830001831,75.0500030518,0.0299999993,10.2600002289,125.190002441,-0.0970000029,0.7799999714,0.7799999714,109.260002136,9.1000003815,45.5436439514,-73.1535415649
9.12095138919047E+017,2011,9.12095138916579E+017,1.531414013E+018,24.5820007324,75.0599975586,0.0299999993,10.2600002289,125.199996948,-0.0970000029,0.7900000215,0.7900000215,109.260002136,9.1000003815,45.5436401367,-73.1535263062
9.12095139923654E+017,2012,9.12095139920864E+017,1.531414014E+018,24.5809993744,75.0500030518,0.0299999993,10.2600002289,125.220001221,-0.0970000029,0.7799999714,0.7799999714,109.260002136,9.1000003815,45.5436325073,-73.1535110474
9.12095140930484E+017,2013,9.12095140925395E+017,1.531414015E+018,24.5799999237,75.0500030518,0.0299999993,10.2600002289,125.239997864,-0.0970000029,0.7799999714,0.7799999714,109.260002136,9.1000003815,45.5436325073,-73.1535110474
9.12095141932139E+017,2014,9.12095141929833E+017,1.531414016E+018,24.579000473,75.0400009155,0.0299999993,10.2600002289,125.269996643,-0.0970000029,0.7699999809,0.7699999809,109.260002136,9.1000003815,45.543636322,-73.153503418
9.12095142937108E+017,2015,9.12095142933962E+017,1.531414017E+018,24.577999115,75.0400009155,0.0299999993,10.2600002289,125.290000916,-0.0970000029,0.7900000215,0.7900000215,109.25,9.1000003815,45.543636322,-73.153503418
9.12095143940504E+017,2016,9.12095143938385E+017,1.531414018E+018,24.5769996643,75.0400009155,0.0299999993,10.2600002289,125.300003052,-0.0970000029,0.7900000215,0.7900000215,109.260002136,9.1000003815,45.5436439514,-73.1534957886
9.12095144943984E+017,2017,9.12095144941755E+017,1.531414019E+018,24.5769996643,75.0500030518,0.0299999993,10.2600002289,125.330001831,-0.0970000029,0.7900000215,0.7900000215,109.260002136,9.1000003815,45.5436439514,-73.1534957886
9.1209514594867E+017,2018,9.12095145946477E+017,1.53141402E+018,24.5769996643,75.0699996948,0.0299999993,10.2600002289,125.36000061,-0.0970000029,0.7900000215,0.7900000215,109.260002136,9.1000003815,45.5436553955,-73.1534957886
9.12095146952103E+017,2019,9.12095146950135E+017,1.531414021E+018,24.5769996643,75.0599975586,0.0299999993,10.2600002289,125.38999939,-0.0970000029,0.7799999714,0.7799999714,109.25,9.1000003815,45.5436553955,-73.1534957886
9.12095147955528E+017,2020,9.12095147953194E+017,1.531414022E+018,24.5760002136,75.0599975586,0.0299999993,10.2600002289,125.410003662,-0.0970000029,0.7799999714,0.7799999714,109.25,9.1000003815,45.5436630249,-73.153503418
9.12095148960387E+017,2021,9.12095148957435E+017,1.531414023E+018,24.5769996643,75.0599975586,0.0299999993,10.2600002289,125.440002441,-0.0970000029,0.7900000215,0.7900000215,109.260002136,9.1000003815,45.5436706543,-73.153503418
9.1209514996312E+017,2022,9.12095149961187E+017,1.531414024E+018,24.5769996643,75.0500030518,0.0299999993,10.2600002289,125.470001221,-0.0970000029,0.7900000215,0.7900000215,109.269996643,9.1000003815,45.5436706543,-73.1535186768
9.12095150966123E+017,2023,9.12095150963923E+017,1.531414025E+018,24.577999115,75.0500030518,0.0299999993,10.2600002289,125.5,-0.0970000029,0.7799999714,0.7799999714,109.269996643,9.1000003815,45.5436782837,-73.1535186768
9.12095151969124E+017,2024,9.12095151967058E+017,1.531414026E+018,24.579000473,75.0500030518,0.0299999993,10.2600002289,125.529998779,-0.0970000029,0.7799999714,0.7799999714,109.269996643,9.1000003815,45.5436782837,-73.1535263062
9.12095152973592E+017,2025,9.12095152970768E+017,1.531414027E+018,24.579000473,75.0599975586,0.0299999993,10.2600002289,125.569999695,-0.0970000029,0.7799999714,0.7799999714,109.269996643,9.1000003815,45.5436859131,-73.1535263062
9.12095153976685E+017,2026,9.12095153975178E+017,1.531414028E+018,24.579000473,75.0599975586,0.0299999993,10.2600002289,125.599998474,-0.0970000029,0.7799999714,0.7799999714,109.269996643,9.1000003815,45.5436935425,-73.1535339355
9.12095154980982E+017,2027,9.12095154979012E+017,1.531414029E+018,24.5799999237,75.0599975586,0.0299999993,10.2600002289,125.629997253,-0.0970000029,0.7699999809,0.7699999809,109.269996643,9.1000003815,45.5437011719,-73.1535339355
9.12095155984922E+017,2028,9.120951559829E+017,1.53141403E+018,24.5820007324,75.0800018311,0.0299999993,10.2600002289,125.650001526,-0.0970000029,0.7799999714,0.7799999714,109.279998779,9.1000003815,45.5437049866,-73.1535339355
9.12095156988585E+017,2029,9.12095156986445E+017,1.531414031E+018,24.5830001831,75.0899963379,0.0299999993,10.2600002289,125.669998169,-0.0970000029,0.7900000215,0.7900000215,109.279998779,9.1000003815,45.543712616,-73.1535263062
9.12095157992582E+017,2030,9.12095157990001E+017,1.531414032E+018,24.5839996338,75.1299972534,0.0299999993,10.2600002289,125.680000305,-0.0970000029,0.7900000215,0.7900000215,109.290000916,9.1000003815,45.5437202454,-73.1535415649
9.12095158995969E+017,2031,9.12095158994218E+017,1.531414033E+018,24.5839996338,75.0999984741,0.0299999993,10.2600002289,125.699996948,-0.0970000029,0.7900000215,0.7900000215,109.300003052,9.1000003815,45.5437316895,-73.1535339355
9.1209515999967E+017,2032,9.1209515999766E+017,1.531414034E+018,24.5860004425,75.1100006104,0.0299999993,10.2600002289,125.699996948,-0.0970000029,0.7699999809,0.7699999809,109.309997559,9.1000003815,45.5437316895,-73.1535339355
9.1209516100307E+017,2033,9.12095161001221E+017,1.531414035E+018,24.5869998932,75.0400009155,0.0299999993,10.2600002289,125.699996948,-0.0970000029,0.7900000215,0.7900000215,109.309997559,9.1000003815,45.5437469482,-73.1535339355
9.12095162006192E+017,2034,9.12095162004496E+017,1.531414036E+018,24.5879993439,74.9700012207,0.0299999993,10.2600002289,125.699996948,-0.0970000029,0.8000000119,0.8000000119,109.319999695,9.1000003815,45.5437469482,-73.1535339355
9.12095163010462E+017,2035,9.12095163007654E+017,1.531414037E+018,24.5890007019,74.9899978638,0.0299999993,10.2600002289,125.699996948,-0.0970000029,0.8000000119,0.8000000119,109.319999695,9.1000003815,45.5437507629,-73.1535186768
9.12095164013636E+017,2036,9.12095164011667E+017,1.531414038E+018,24.5900001526,74.9800033569,0.0299999993,10.2600002289,125.709999084,-0.0970000029,0.8000000119,0.8000000119,109.330001831,9.1000003815,45.543762207,-73.1535110474
9.12095165016612E+017,2037,9.12095165014472E+017,1.531414039E+018,24.5909996033,74.9800033569,0.0299999993,10.2600002289,125.709999084,-0.0970000029,0.8000000119,0.8000000119,109.330001831,9.1000003815,45.543762207,-73.1535110474
9.12095166019977E+017,2038,9.12095166017635E+017,1.53141404E+018,24.591999054,74.9700012207,0.0299999993,10.2600002289,125.720001221,-0.0970000029,0.8100000024,0.8100000024,109.339996338,9.1000003815,45.5437736511,-73.1535110474
9.12095167023513E+017,2039,9.1209516702149E+017,1.531414041E+018,24.593000412,74.9599990845,0.0299999993,10.2600002289,125.730003357,-0.0970000029,0.8100000024,0.8100000024,109.339996338,9.1000003815,45.5437736511,-73.1534957886
9.12095168027786E+017,2040,9.12095168025432E+017,1.531414042E+018,24.5939998627,74.9599990845,0.0299999993,10.2600002289,125.730003357,-0.0970000029,0.8000000119,0.8000000119,109.349998474,9.1000003815,45.5437850952,-73.1534957886
9.12095169032762E+017,2041,9.12095169030924E+017,1.531414043E+018,24.5939998627,74.9700012207,0.0299999993,10.2600002289,125.739997864,-0.0970000029,0.8100000024,0.8100000024,109.36000061,9.1000003815,45.5437927246,-73.1534881592
9.12095170036541E+017,2042,9.12095170034151E+017,1.531414044E+018,24.5939998627,74.9599990845,0.0299999993,10.2600002289,125.760002136,-0.0970000029,0.8000000119,0.8000000119,109.370002747,9.1000003815,45.5437965393,-73.1534881592
9.12095171039734E+017,2043,9.12095171037862E+017,1.531414045E+018,24.5949993134,74.9300003052,0.0299999993,10.2600002289,125.779998779,-0.0970000029,0.8100000024,0.8100000024,109.379997253,9.1099996567,45.5438041687,-73.1534881592
9.12095172043293E+017,2044,9.1209517204131E+017,1.531414046E+018,24.5949993134,74.9599990845,0.0299999993,10.2600002289,125.790000916,-0.0970000029,0.8000000119,0.8000000119,109.379997253,9.1099996567,45.5438117981,-73.1534881592
9.12095173047324E+017,2045,9.12095173044722E+017,1.531414047E+018,24.5949993134,74.9400024414,0.0299999993,10.2600002289,125.809997559,-0.0970000029,0.8100000024,0.8100000024,109.379997253,9.1099996567,45.5438194275,-73.1534957886
9.12095174051528E+017,2046,9.12095174049361E+017,1.531414048E+018,24.5960006714,74.9899978638,0.0299999993,10.2600002289,125.830001831,-0.0970000029,0.8000000119,0.8000000119,109.379997253,9.1099996567,45.5438232422,-73.1534957886
9.12095175054902E+017,2047,9.12095175052988E+017,1.531414049E+018,24.5960006714,75.0699996948,0.0299999993,10.2600002289,125.839996338,-0.0970000029,0.7799999714,0.7799999714,109.38999939,9.1099996567,45.5438308716,-73.1534881592
9.12095176058586E+017,2048,9.12095176056423E+017,1.53141405E+018,24.5960006714,75.0699996948,0.0299999993,10.2600002289,125.839996338,-0.0970000029,0.7599999905,0.7599999905,109.38999939,9.1099996567,45.5438346863,-73.153503418
9.12095177060726E+017,2049,9.12095177058936E+017,1.531414051E+018,24.5960006714,75.0800018311,0.0299999993,10.2600002289,125.86000061,-0.0970000029,0.7799999714,0.7799999714,109.400001526,9.1099996567,45.5438461304,-73.153503418
9.12095178064947E+017,2050,9.12095178062797E+017,1.531414052E+018,24.5960006714,75.1299972534,0.0299999993,10.2600002289,125.879997253,-0.0970000029,0.7699999809,0.7699999809,109.400001526,9.1099996567,45.5438537598,-73.1535110474
9.12095179069208E+017,2051,9.1209517906694E+017,1.531414053E+018,24.5960006714,75.1500015259,0.0299999993,10.2600002289,125.900001526,-0.0970000029,0.7699999809,0.7699999809,109.410003662,9.1099996567,45.5438537598,-73.1535110474
9.12095180072757E+017,2052,9.1209518007071E+017,1.531414054E+018,24.5960006714,75.1699981689,0.0299999993,10.2600002289,125.919998169,-0.0970000029,0.7699999809,0.7699999809,109.410003662,9.1099996567,45.5438613892,-73.1535110474
9.12095181076271E+017,2053,9.12095181074062E+017,1.531414055E+018,24.5960006714,75.1600036621,0.0299999993,10.2600002289,125.940002441,-0.0970000029,0.7699999809,0.7699999809,109.410003662,9.1099996567,45.5438690186,-73.1535186768
9.12095182079955E+017,2054,9.12095182078137E+017,1.531414056E+018,24.5960006714,75.1500015259,0.0299999993,10.2600002289,125.959999084,-0.0970000029,0.8000000119,0.8000000119,109.410003662,9.1099996567,45.5438804626,-73.1535186768
9.12095183085001E+017,2055,9.12095183081924E+017,1.531414057E+018,24.5960006714,75.1399993896,0.0299999993,10.2600002289,125.989997864,-0.0970000029,0.8000000119,0.8000000119,109.419998169,9.1099996567,45.5438804626,-73.1535186768
9.12095184088298E+017,2056,9.12095184086168E+017,1.531414058E+018,24.5960006714,75.1399993896,0.0299999993,10.2600002289,126.029998779,-0.0970000029,0.8000000119,0.8000000119,109.410003662,9.1099996567,45.5438957214,-73.1535263062
9.12095185092045E+017,2057,9.1209518508976E+017,1.531414059E+018,24.5949993134,75.1600036621,0.0299999993,10.2600002289,126.059997559,-0.0970000029,0.8000000119,0.8000000119,109.410003662,9.1099996567,45.5438957214,-73.1535263062
9.12095186095689E+017,2058,9.12095186093419E+017,1.53141406E+018,24.5949993134,75.1600036621,0.0299999993,10.25,126.099998474,-0.0970000029,0.8000000119,0.8000000119,109.419998169,9.1099996567,45.5439071655,-73.1535186768
9.12095187099033E+017,2059,9.12095187096745E+017,1.531414061E+018,24.5949993134,75.1699981689,0.0299999993,10.25,126.129997253,-0.0970000029,0.8000000119,0.8000000119,109.410003662,9.1099996567,45.5439147949,-73.1535186768
9.12095188103382E+017,2060,9.12095188100537E+017,1.531414062E+018,24.5949993134,75.1500015259,0.0299999993,10.25,126.150001526,-0.0970000029,0.7900000215,0.7900000215,109.410003662,9.1099996567,45.5439147949,-73.1535186768
9.12095189107045E+017,2061,9.12095189104847E+017,1.531414063E+018,24.5939998627,75.1600036621,0.0299999993,10.25,126.180000305,-0.0970000029,0.7900000215,0.7900000215,109.410003662,9.1099996567,45.5439224243,-73.1535339355
9.12095190110901E+017,2062,9.12095190108883E+017,1.531414064E+018,24.5939998627,75.1699981689,0.0299999993,10.25,126.199996948,-0.0970000029,0.8000000119,0.8000000119,109.410003662,9.1099996567,45.543926239,-73.1535339355
9.12095191114979E+017,2063,9.12095191112659E+017,1.531414065E+018,24.5949993134,75.1299972534,0.0299999993,10.25,126.209999084,-0.0970000029,0.8199999928,0.8199999928,109.410003662,9.1099996567,45.5439414978,-73.1535263062
9.12095192119419E+017,2064,9.12095192116711E+017,1.531414066E+018,24.5939998627,75.0999984741,0.0299999993,10.25,126.220001221,-0.0970000029,0.8199999928,0.8199999928,109.410003662,9.1099996567,45.5439414978,-73.1535263062
9.12095193124218E+017,2065,9.12095193121285E+017,1.531414067E+018,24.5939998627,75.0899963379,0.0299999993,10.25,126.230003357,-0.0970000029,0.8399999738,0.8399999738,109.419998169,9.1099996567,45.5439529419,-73.1535263062
9.12095194129622E+017,2066,9.12095194127075E+017,1.531414068E+018,24.5939998627,75.0999984741,0.0299999993,10.25,126.239997864,-0.0970000029,0.8299999833,0.8299999833,109.430000305,9.1099996567,45.543964386,-73.1535186768
9.12095195133302E+017,2067,9.120951951312E+017,1.531414069E+018,24.5949993134,75.1100006104,0.0299999993,10.25,126.239997864,-0.0970000029,0.8299999833,0.8299999833,109.430000305,9.1099996567,45.5439720154,-73.1535186768
9.12095196138864E+017,2068,9.12095196135643E+017,1.53141407E+018,24.5960006714,75.1299972534,0.0299999993,10.2600002289,126.239997864,-0.0970000029,0.8299999833,0.8299999833,109.440002441,9.1099996567,45.5439758301,-73.1535186768
9.12095197141954E+017,2069,9.12095197139912E+017,1.531414071E+018,24.5960006714,75.1699981689,0.0299999993,10.2600002289,126.25,-0.0970000029,0.8100000024,0.8100000024,109.440002441,9.1099996567,45.5439834595,-73.1535110474
9.12095198147558E+017,2070,9.1209519814429E+017,1.531414072E+018,24.5970001221,75.1500015259,0.0299999993,10.2600002289,126.25,-0.0970000029,0.8100000024,0.8100000024,109.449996948,9.1099996567,45.5439949036,-73.1535110474
9.12095199149697E+017,2071,9.12095199147834E+017,1.531414073E+018,24.5970001221,75.1500015259,0.0299999993,10.2600002289,126.260002136,-0.0970000029,0.8000000119,0.8000000119,109.459999084,9.1099996567,45.544002533,-73.1535110474
9.12095200153731E+017,2072,9.12095200151652E+017,1.531414074E+018,24.5970001221,75.1600036621,0.0299999993,10.2600002289,126.260002136,-0.0970000029,0.8100000024,0.8100000024,109.470001221,9.1099996567,45.5440101624,-73.153503418
9.12095201157355E+017,2073,9.120952011553E+017,1.531414075E+018,24.5979995728,75.1600036621,0.0299999993,10.2600002289,126.260002136,-0.0970000029,0.8399999738,0.8399999738,109.480003357,9.1099996567,45.5440216064,-73.153503418
9.12095202161083E+017,2074,9.12095202159004E+017,1.531414076E+018,24.5990009308,75.1699981689,0.0299999993,10.2600002289,126.260002136,-0.0970000029,0.8199999928,0.8199999928,109.489997864,9.1099996567,45.5440216064,-73.153503418
9.1209520316583E+017,2075,9.12095203163082E+017,1.531414077E+018,24.6000003815,75.1500015259,0.0299999993,10.2600002289,126.269996643,-0.0970000029,0.8299999833,0.8299999833,109.5,9.1099996567,45.5440330505,-73.1534957886
9.12095204169919E+017,2076,9.12095204167515E+017,1.531414078E+018,24.6009998322,75.1500015259,0.0299999993,10.2600002289,126.279998779,-0.0970000029,0.8199999928,0.8199999928,109.510002136,9.1199998856,45.5440330505,-73.1534957886
9.12095205173652E+017,2077,9.12095205171854E+017,1.531414079E+018,24.6019992828,75.1600036621,0.0299999993,10.2600002289,126.279998779,-0.0970000029,0.8199999928,0.8199999928,109.519996643,9.1199998856,45.5440444946,-73.1534957886
9.12095206177049E+017,2078,9.12095206174996E+017,1.53141408E+018,24.6030006409,75.1500015259,0.0299999993,10.2600002289,126.279998779,-0.0970000029,0.8199999928,0.8199999928,109.540000916,9.1199998856,45.5440483093,-73.153503418
9.1209520718178E+017,2079,9.12095207178898E+017,1.531414081E+018,24.6040000916,75.1500015259,0.0299999993,10.2600002289,126.279998779,-0.0970000029,0.8299999833,0.8299999833,109.540000916,9.1199998856,45.5440597534,-73.153503418
9.12095208185404E+017,2080,9.12095208182769E+017,1.531414082E+018,24.6049995422,75.1200027466,0.0299999993,10.2600002289,126.279998779,-0.0970000029,0.8100000024,0.8100000024,109.559997559,9.1199998856,45.5440673828,-73.153503418
9.12095209188913E+017,2081,9.12095209187154E+017,1.531414083E+018,24.6060009003,75.1200027466,0.0299999993,10.2600002289,126.279998779,-0.0970000029,0.8199999928,0.8199999928,109.569999695,9.1199998856,45.5440673828,-73.153503418
9.12095210192237E+017,2082,9.12095210190585E+017,1.531414084E+018,24.607000351,75.0699996948,0.0299999993,10.2600002289,126.269996643,-0.0970000029,0.8000000119,0.8000000119,109.580001831,9.1199998856,45.5440788269,-73.1534957886
9.12095211195225E+017,2083,9.12095211193279E+017,1.531414085E+018,24.6079998016,75.0500030518,0.0299999993,10.2600002289,126.269996643,-0.0970000029,0.8100000024,0.8100000024,109.589996338,9.1199998856,45.5440826416,-73.1535110474
9.12095212198669E+017,2084,9.12095212196406E+017,1.531414086E+018,24.6089992523,75.0599975586,0.0299999993,10.2600002289,126.269996643,-0.0970000029,0.8100000024,0.8100000024,109.61000061,9.1199998856,45.5440864563,-73.1535110474
9.12095213202483E+017,2085,9.12095213199897E+017,1.531414087E+018,24.6100006104,75.0699996948,0.0299999993,10.2600002289,126.260002136,-0.0970000029,0.8100000024,0.8100000024,109.620002747,9.1199998856,45.5440940857,-73.153503418
9.12095214205629E+017,2086,9.12095214203861E+017,1.531414088E+018,24.6100006104,75.0699996948,0.0299999993,10.2600002289,126.260002136,-0.0970000029,0.8000000119,0.8000000119,109.63999939,9.1199998856,45.5440979004,-73.153503418
9.12095215209706E+017,2087,9.12095215207639E+017,1.531414089E+018,24.6100006104,75.0800018311,0.0299999993,10.2600002289,126.260002136,-0.0970000029,0.8100000024,0.8100000024,109.650001526,9.1300001144,45.5441093445,-73.1535186768
9.12095216212819E+017,2088,9.12095216211166E+017,1.53141409E+018,24.6089992523,75.0899963379,0.0299999993,10.2600002289,126.25,-0.0970000029,0.8000000119,0.8000000119,109.660003662,9.1300001144,45.5441131592,-73.1535186768
9.12095217216467E+017,2089,9.12095217214652E+017,1.531414091E+018,24.6089992523,75.1200027466,0.0299999993,10.2600002289,126.260002136,-0.0970000029,0.8100000024,0.8100000024,109.680000305,9.1300001144,45.5441246033,-73.1535110474
9.12095218221329E+017,2090,9.12095218218374E+017,1.531414092E+018,24.6089992523,75.1399993896,0.0299999993,10.2600002289,126.260002136,-0.0970000029,0.8100000024,0.8100000024,109.690002441,9.1300001144,45.544128418,-73.1535263062
9.12095219225594E+017,2091,9.12095219223268E+017,1.531414093E+018,24.6089992523,75.1299972534,0.0299999993,10.2600002289,126.260002136,-0.0970000029,0.8100000024,0.8100000024,109.699996948,9.1300001144,45.5441398621,-73.1535186768
9.12095220228985E+017,2092,9.12095220227123E+017,1.531414094E+018,24.6089992523,75.1399993896,0.0299999993,10.2600002289,126.260002136,-0.0970000029,0.8299999833,0.8299999833,109.720001221,9.1300001144,45.5441474915,-73.1535186768
9.12095221234394E+017,2093,9.12095221232256E+017,1.531414095E+018,24.6089992523,75.1699981689,0.0299999993,10.2600002289,126.260002136,-0.0970000029,0.8100000024,0.8100000024,109.730003357,9.1300001144,45.5441513062,-73.1535186768
9.12095222238191E+017,2094,9.12095222236055E+017,1.531414096E+018,24.6100006104,75.1699981689,0.0299999993,10.2600002289,126.260002136,-0.0970000029,0.8000000119,0.8000000119,109.739997864,9.1300001144,45.5441665649,-73.1535263062
9.12095223242318E+017,2095,9.12095223239522E+017,1.531414097E+018,24.6100006104,75.1699981689,0.0299999993,10.2600002289,126.260002136,-0.0970000029,0.8100000024,0.8100000024,109.75,9.1300001144,45.5441665649,-73.1535263062
9.12095224246392E+017,2096,9.12095224244288E+017,1.531414098E+018,24.6089992523,75.1900024414,0.0299999993,10.2600002289,126.260002136,-0.0970000029,0.8199999928,0.8199999928,109.760002136,9.1300001144,45.544178009,-73.1535186768
9.12095225248845E+017,2097,9.1209522524695E+017,1.531414099E+018,24.6089992523,75.1900024414,0.0299999993,10.2600002289,126.260002136,-0.0970000029,0.8399999738,0.8399999738,109.769996643,9.1400003433,45.5441856384,-73.1535186768
9.12095226252291E+017,2098,9.12095226250704E+017,1.5314141E+018,24.6089992523,75.1900024414,0.0299999993,10.2600002289,126.260002136,-0.0970000029,0.8299999833,0.8299999833,109.779998779,9.1400003433,45.5441932678,-73.1535186768
9.12095227256045E+017,2099,9.12095227253898E+017,1.531414101E+018,24.6089992523,75.1999969482,0.0299999993,10.2600002289,126.269996643,-0.0970000029,0.8500000238,0.8500000238,109.790000916,9.1400003433,45.5442047119,-73.1535110474
9.12095228259798E+017,2100,9.12095228256983E+017,1.531414102E+018,24.611000061,75.1500015259,0.0299999993,10.2600002289,126.269996643,-0.0970000029,0.8399999738,0.8399999738,109.809997559,9.1400003433,45.5442123413,-73.1535110474
9.12095229262443E+017,2101,9.12095229260797E+017,1.531414103E+018,24.6119995117,75.1699981689,0.0299999993,10.2700004578,126.279998779,-0.0970000029,0.8399999738,0.8399999738,109.819999695,9.1400003433,45.5442199707,-73.1535263062
9.12095230266063E+017,2102,9.1209523026439E+017,1.531414105E+018,24.6130008698,75.1699981689,0.0299999993,10.2700004578,126.290000916,-0.0970000029,0.8299999833,0.8299999833,109.830001831,9.1400003433,45.5442314148,-73.1535186768
9.12095231270349E+017,2103,9.12095231268223E+017,1.531414106E+018,24.6130008698,75.1399993896,0.0299999993,10.2700004578,126.309997559,-0.0970000029,0.8299999833,0.8299999833,109.839996338,9.1400003433,45.5442314148,-73.1535186768
9.12095232272888E+017,2104,9.12095232270912E+017,1.531414107E+018,24.6130008698,75.1200027466,0.0299999993,10.2700004578,126.319999695,-0.0970000029,0.8100000024,0.8100000024,109.86000061,9.1400003433,45.5442428589,-73.1535186768
9.12095233277525E+017,2105,9.12095233274713E+017,1.531414108E+018,24.6130008698,75.0999984741,0.0299999993,10.2700004578,126.330001831,-0.0970000029,0.8299999833,0.8299999833,109.86000061,9.1400003433,45.5442581177,-73.1535110474
9.12095234280903E+017,2106,9.12095234279015E+017,1.531414109E+018,24.6140003204,75.0199966431,0.0299999993,10.2700004578,126.339996338,-0.0970000029,0.8299999833,0.8299999833,109.870002747,9.1400003433,45.5442581177,-73.1535110474
9.12095235284345E+017,2107,9.12095235282359E+017,1.53141411E+018,24.6140003204,75.0199966431,0.0299999993,10.2700004578,126.349998474,-0.0970000029,0.8100000024,0.8100000024,109.88999939,9.1400003433,45.5442619324,-73.1535110474
9.12095236287699E+017,2108,9.12095236285941E+017,1.531414111E+018,24.6140003204,75.0500030518,0.0299999993,10.2700004578,126.36000061,-0.0970000029,0.8100000024,0.8100000024,109.900001526,9.1499996185,45.5442657471,-73.1534957886
9.12095237291933E+017,2109,9.12095237289508E+017,1.531414112E+018,24.6149997711,75.0400009155,0.0299999993,10.2700004578,126.379997253,-0.0970000029,0.8100000024,0.8100000024,109.910003662,9.1499996185,45.5442733765,-73.1534881592
9.12095238296388E+017,2110,9.12095238293961E+017,1.531414113E+018,24.6149997711,75.0500030518,0.0299999993,10.2700004578,126.400001526,-0.0970000029,0.7900000215,0.7900000215,109.930000305,9.1499996185,45.5442848206,-73.1534881592
9.12095239300334E+017,2111,9.12095239298214E+017,1.531414114E+018,24.6159992218,75.0500030518,0.0299999993,10.2700004578,126.419998169,-0.0970000029,0.7900000215,0.7900000215,109.940002441,9.1499996185,45.5442848206,-73.1534881592
9.12095240303781E+017,2112,9.12095240301661E+017,1.531414115E+018,24.6159992218,75.0599975586,0.0299999993,10.2700004578,126.440002441,-0.0970000029,0.7699999809,0.7699999809,109.940002441,9.1499996185,45.5443000793,-73.1534957886
9.12095241306711E+017,2113,9.12095241304391E+017,1.531414116E+018,24.6149997711,75.0599975586,0.0299999993,10.2700004578,126.470001221,-0.0970000029,0.7699999809,0.7699999809,109.940002441,9.1499996185,45.5443000793,-73.1534957886
9.12095242310234E+017,2114,9.12095242308057E+017,1.531414117E+018,24.6149997711,75.0699996948,0.0299999993,10.2700004578,126.489997864,-0.0970000029,0.7699999809,0.7699999809,109.959999084,9.1499996185,45.5443115234,-73.1534957886
9.12095243315246E+017,2115,9.12095243312055E+017,1.531414118E+018,24.6159992218,75.0299987793,0.0299999993,10.2700004578,126.510002136,-0.0970000029,0.7900000215,0.7900000215,109.970001221,9.1499996185,45.5443115234,-73.1534957886
9.12095244318642E+017,2116,9.12095244316138E+017,1.531414119E+018,24.6159992218,75.0299987793,0.0299999993,10.2700004578,126.529998779,-0.0970000029,0.7900000215,0.7900000215,109.970001221,9.1499996185,45.5443267822,-73.153503418
9.12095245321752E+017,2117,9.12095245320181E+017,1.53141412E+018,24.6170005798,75.0500030518,0.0299999993,10.2700004578,126.540000916,-0.0970000029,0.8000000119,0.8000000119,109.980003357,9.1499996185,45.5443344116,-73.153503418
9.12095246325896E+017,2118,9.12095246323476E+017,1.531414121E+018,24.6170005798,75.0599975586,0.0299999993,10.2700004578,126.559997559,-0.0970000029,0.8100000024,0.8100000024,109.989997864,9.1499996185,45.544342041,-73.1535110474
9.12095247329594E+017,2119,9.12095247327131E+017,1.531414122E+018,24.6180000305,75.1500015259,0.0299999993,10.2700004578,126.569999695,-0.0970000029,0.8299999833,0.8299999833,110,9.1499996185,45.5443458557,-73.1535110474
9.12095248337006E+017,2120,9.12095248331732E+017,1.531414123E+018,24.6180000305,75.1500015259,0.0299999993,10.2700004578,126.589996338,-0.0970000029,0.8399999738,0.8399999738,110.010002136,9.1499996185,45.5443534851,-73.153503418
9.12095249340008E+017,2121,9.12095249337047E+017,1.531414124E+018,24.6180000305,75.1299972534,0.0299999993,10.2700004578,126.61000061,-0.0970000029,0.8299999833,0.8299999833,110.019996643,9.1499996185,45.5443611145,-73.1535186768
9.12095250343464E+017,2122,9.12095250341295E+017,1.531414125E+018,24.6180000305,75.1699981689,0.0299999993,10.2700004578,126.620002747,-0.0970000029,0.8199999928,0.8199999928,110.029998779,9.1599998474,45.5443687439,-73.1535110474
9.12095251347011E+017,2123,9.12095251344978E+017,1.531414126E+018,24.6180000305,75.1900024414,0.0299999993,10.2700004578,126.63999939,-0.0970000029,0.8199999928,0.8199999928,110.040000916,9.1599998474,45.5443763733,-73.1535263062
9.12095252350679E+017,2124,9.12095252348625E+017,1.531414127E+018,24.6189994812,75.1699981689,0.0299999993,10.2700004578,126.660003662,-0.0970000029,0.8299999833,0.8299999833,110.050003052,9.1599998474,45.5443878174,-73.1535263062
9.12095253354691E+017,2125,9.12095253352178E+017,1.531414128E+018,24.6189994812,75.1399993896,0.0299999993,10.2700004578,126.680000305,-0.0970000029,0.8399999738,0.8399999738,110.059997559,9.1599998474,45.5443878174,-73.1535263062
9.12095254358083E+017,2126,9.12095254356329E+017,1.531414129E+018,24.6200008392,75.1600036621,0.0299999993,10.2700004578,126.699996948,-0.0970000029,0.8500000238,0.8500000238,110.080001831,9.1599998474,45.5443992615,-73.1535186768
9.12095255362311E+017,2127,9.12095255360268E+017,1.53141413E+018,24.6200008392,75.1699981689,0.0299999993,10.2700004578,126.720001221,-0.0970000029,0.8399999738,0.8399999738,110.080001831,9.1599998474,45.5444068909,-73.1535186768
9.12095256364962E+017,2128,9.12095256363325E+017,1.531414131E+018,24.6200008392,75.1800003052,0.0299999993,10.2700004578,126.75,-0.0970000029,0.8399999738,0.8399999738,110.099998474,9.1599998474,45.5444145203,-73.1535186768
9.12095257369129E+017,2129,9.12095257366972E+017,1.531414132E+018,24.6200008392,75.1800003052,0.0299999993,10.2700004578,126.790000916,-0.0970000029,0.8500000238,0.8500000238,110.099998474,9.1599998474,45.5444259644,-73.1535263062
9.12095258373924E+017,2130,9.12095258371068E+017,1.531414133E+018,24.6200008392,75.1399993896,0.0299999993,10.2700004578,126.819999695,-0.0970000029,0.8299999833,0.8299999833,110.11000061,9.1599998474,45.5444335938,-73.1535263062
9.12095259376723E+017,2131,9.12095259374647E+017,1.531414134E+018,24.6200008392,75.1200027466,0.0299999993,10.2600002289,126.849998474,-0.0970000029,0.8399999738,0.8399999738,110.120002747,9.1599998474,45.5444412231,-73.1535186768
9.12095260380507E+017,2132,9.12095260378217E+017,1.531414135E+018,24.6200008392,75.1200027466,0.0299999993,10.2600002289,126.879997253,-0.0970000029,0.8199999928,0.8199999928,110.129997253,9.1599998474,45.5444526672,-73.1535186768
9.12095261383561E+017,2133,9.1209526138124E+017,1.531414136E+018,24.6210002899,75.1299972534,0.0299999993,10.2600002289,126.919998169,-0.0970000029,0.8100000024,0.8100000024,110.129997253,9.1599998474,45.5444602966,-73.1535186768
9.12095262387216E+017,2134,9.12095262384811E+017,1.531414137E+018,24.6210002899,75.1100006104,0.0299999993,10.2600002289,126.940002441,-0.0970000029,0.8100000024,0.8100000024,110.13999939,9.1599998474,45.5444641113,-73.1535110474
9.1209526339138E+017,2135,9.12095263388716E+017,1.531414138E+018,24.6210002899,75.0699996948,0.0299999993,10.2600002289,126.970001221,-0.0970000029,0.8100000024,0.8100000024,110.13999939,9.1599998474,45.5444717407,-73.1535110474
9.12095264394132E+017,2136,9.12095264392226E+017,1.531414139E+018,24.6219997406,75.0299987793,0.0299999993,10.2600002289,126.989997864,-0.0970000029,0.8000000119,0.8000000119,110.150001526,9.1599998474,45.5444831848,-73.1535110474
9.12095265397771E+017,2137,9.12095265395687E+017,1.53141414E+018,24.6229991913,75.0299987793,0.0299999993,10.2600002289,127.019996643,-0.0970000029,0.8199999928,0.8199999928,110.150001526,9.1599998474,45.5444908142,-73.153503418
9.12095266401628E+017,2138,9.12095266399378E+017,1.531414141E+018,24.6219997406,75.0800018311,0.0299999993,10.2600002289,127.050003052,-0.0970000029,0.8299999833,0.8299999833,110.160003662,9.1700000763,45.5444946289,-73.153503418
9.12095267404856E+017,2139,9.12095267402922E+017,1.531414142E+018,24.6219997406,75.0800018311,0.0299999993,10.2600002289,127.089996338,-0.0970000029,0.8299999833,0.8299999833,110.160003662,9.1700000763,45.5445098877,-73.153503418
9.12095268409777E+017,2140,9.12095268406965E+017,1.531414143E+018,24.6229991913,75.0699996948,0.0299999993,10.2600002289,127.120002747,-0.0970000029,0.8100000024,0.8100000024,110.169998169,9.1700000763,45.5445098877,-73.153503418
9.12095269413489E+017,2141,9.12095269411294E+017,1.531414144E+018,24.6240005493,75.0599975586,0.0299999993,10.2600002289,127.13999939,-0.0970000029,0.8100000024,0.8100000024,110.180000305,9.1700000763,45.5445213318,-73.1534957886
9.12095270416876E+017,2142,9.12095270414978E+017,1.531414145E+018,24.6240005493,75.0899963379,0.0299999993,10.2600002289,127.169998169,-0.0970000029,0.8000000119,0.8000000119,110.180000305,9.1700000763,45.5445289612,-73.153503418
9.12095271419808E+017,2143,9.12095271418048E+017,1.531414146E+018,24.625,75.1100006104,0.0299999993,10.2600002289,127.199996948,-0.0970000029,0.8100000024,0.8100000024,110.190002441,9.1700000763,45.5445365906,-73.153503418
9.1209527242361E+017,2144,9.12095272421942E+017,1.531414147E+018,24.625,75.1500015259,0.0299999993,10.2600002289,127.230003357,-0.0970000029,0.8000000119,0.8000000119,110.190002441,9.1700000763,45.5445404053,-73.153503418
9.12095273428692E+017,2145,9.12095273425902E+017,1.531414148E+018,24.625,75.1600036621,0.0299999993,10.2600002289,127.260002136,-0.0970000029,0.7900000215,0.7900000215,110.190002441,9.1700000763,45.5445480347,-73.1535186768
9.12095274433175E+017,2146,9.1209527443076E+017,1.531414149E+018,24.625,75.1500015259,0.0299999993,10.2600002289,127.300003052,-0.0970000029,0.7900000215,0.7900000215,110.190002441,9.1700000763,45.5445556641,-73.1535110474
9.12095275436969E+017,2147,9.1209527543476E+017,1.53141415E+018,24.6259994507,75.1800003052,0.0299999993,10.2600002289,127.330001831,-0.0970000029,0.7900000215,0.7900000215,110.190002441,9.1700000763,45.5445632935,-73.1535263062
9.12095276440765E+017,2148,9.12095276438402E+017,1.531414151E+018,24.625,75.1500015259,0.0299999993,10.2600002289,127.370002747,-0.0970000029,0.7900000215,0.7900000215,110.190002441,9.1700000763,45.5445709229,-73.1535186768
9.12095277444045E+017,2149,9.1209527744226E+017,1.531414152E+018,24.625,75.1399993896,0.0299999993,10.2600002289,127.38999939,-0.0970000029,0.7799999714,0.7799999714,110.190002441,9.1700000763,45.5445747375,-73.1535186768
9.12095278448093E+017,2150,9.12095278445934E+017,1.531414153E+018,24.6240005493,75.1100006104,0.0299999993,10.2600002289,127.419998169,-0.0970000029,0.7799999714,0.7799999714,110.180000305,9.1700000763,45.5445785522,-73.1535339355
9.12095279450926E+017,2151,9.1209527944919E+017,1.531414154E+018,24.6229991913,75.0899963379,0.0299999993,10.2600002289,127.440002441,-0.0970000029,0.7900000215,0.7900000215,110.160003662,9.1700000763,45.5445861816,-73.1535339355
9.12095280455027E+017,2152,9.12095280452717E+017,1.531414155E+018,24.6219997406,75.0699996948,0.0299999993,10.2600002289,127.459999084,-0.0970000029,0.7699999809,0.7699999809,110.150001526,9.1599998474,45.5445899963,-73.1535263062
9.12095281458161E+017,2153,9.1209528145603E+017,1.531414156E+018,24.6210002899,75.0599975586,0.0299999993,10.2600002289,127.470001221,-0.0970000029,0.7699999809,0.7699999809,110.13999939,9.1599998474,45.5445976257,-73.1535263062
9.12095282460915E+017,2154,9.12095282459409E+017,1.531414157E+018,24.6189994812,75.0199966431,0.0299999993,10.2600002289,127.480003357,-0.0970000029,0.7699999809,0.7699999809,110.129997253,9.1599998474,45.5446014404,-73.1535263062
9.12095283465001E+017,2155,9.12095283462939E+017,1.531414158E+018,24.6180000305,74.9899978638,0.0299999993,10.2600002289,127.489997864,-0.0970000029,0.7599999905,0.7599999905,110.120002747,9.1599998474,45.5446166992,-73.1535186768
9.12095284469122E+017,2156,9.12095284466933E+017,1.531414159E+018,24.6159992218,74.9800033569,0.0299999993,10.2600002289,127.510002136,-0.0970000029,0.7799999714,0.7799999714,110.089996338,9.1599998474,45.5446281433,-73.1535186768
9.12095285472501E+017,2157,9.12095285470625E+017,1.53141416E+018,24.6159992218,74.9800033569,0.0299999993,10.2600002289,127.519996643,-0.0970000029,0.7699999809,0.7699999809,110.080001831,9.1599998474,45.5446281433,-73.1535186768
9.12095286476758E+017,2158,9.12095286474612E+017,1.531414161E+018,24.6149997711,74.9700012207,0.0299999993,10.2600002289,127.529998779,-0.0970000029,0.7799999714,0.7799999714,110.069999695,9.1599998474,45.5446395874,-73.1535110474
9.12095287480042E+017,2159,9.12095287478486E+017,1.531414162E+018,24.6149997711,74.9499969482,0.0299999993,10.2600002289,127.550003052,-0.0970000029,0.7699999809,0.7699999809,110.059997559,9.1599998474,45.5446395874,-73.1535110474
9.12095288484342E+017,2160,9.1209528848225E+017,1.531414163E+018,24.6140003204,74.9499969482,0.0299999993,10.2600002289,127.559997559,-0.0970000029,0.7799999714,0.7799999714,110.050003052,9.1599998474,45.5446548462,-73.1535263062
9.12095289488787E+017,2161,9.12095289486672E+017,1.531414164E+018,24.6140003204,74.9499969482,0.0299999993,10.2600002289,127.569999695,-0.0970000029,0.8100000024,0.8100000024,110.040000916,9.1599998474,45.5446548462,-73.1535263062
9.12095290491757E+017,2162,9.12095290489512E+017,1.531414165E+018,24.6140003204,74.9800033569,0.0299999993,10.2600002289,127.580001831,-0.0970000029,0.8199999928,0.8199999928,110.019996643,9.1599998474,45.5446777344,-73.1535186768
9.12095291495682E+017,2163,9.12095291493541E+017,1.531414166E+018,24.6140003204,75,0.0299999993,10.2600002289,127.599998474,-0.0970000029,0.8299999833,0.8299999833,110.010002136,9.1499996185,45.5446777344,-73.1535186768
9.12095292498324E+017,2164,9.12095292496735E+017,1.531414167E+018,24.6140003204,75.0599975586,0.0299999993,10.2600002289,127.61000061,-0.0970000029,0.8600000143,0.8600000143,110.010002136,9.1499996185,45.5446853638,-73.1535110474
9.12095293503327E+017,2165,9.12095293500448E+017,1.531414168E+018,24.6140003204,75.0999984741,0.0299999993,10.2600002289,127.629997253,-0.0970000029,0.8399999738,0.8399999738,110.010002136,9.1599998474,45.5446968079,-73.1535110474
9.12095294505694E+017,2166,9.12095294503909E+017,1.531414169E+018,24.6140003204,75.1399993896,0.0299999993,10.2600002289,127.63999939,-0.0970000029,0.8399999738,0.8399999738,110.010002136,9.1499996185,45.5446968079,-73.1535110474
9.12095295509257E+017,2167,9.12095295507499E+017,1.53141417E+018,24.6149997711,75.1600036621,0.0299999993,10.2600002289,127.650001526,-0.0970000029,0.8700000048,0.8700000048,110.010002136,9.1499996185,45.5447044373,-73.1535110474
9.12095296512931E+017,2168,9.12095296510871E+017,1.531414171E+018,24.6159992218,75.1699981689,0.0299999993,10.2600002289,127.660003662,-0.0970000029,0.8700000048,0.8700000048,110.010002136,9.1499996185,45.5447235107,-73.153503418
9.12095297516876E+017,2169,9.12095297514794E+017,1.531414172E+018,24.6159992218,75.1900024414,0.0299999993,10.2600002289,127.669998169,-0.0970000029,0.8799999952,0.8799999952,110.010002136,9.1499996185,45.5447235107,-73.153503418
9.12095298521496E+017,2170,9.12095298519323E+017,1.531414173E+018,24.6159992218,75.1900024414,0.0299999993,10.2600002289,127.680000305,-0.0970000029,0.8799999952,0.8799999952,110.019996643,9.1499996185,45.5447311401,-73.1535110474
9.12095299526178E+017,2171,9.12095299523842E+017,1.531414174E+018,24.6149997711,75.1999969482,0.0299999993,10.2600002289,127.690002441,-0.0970000029,0.8899999857,0.8899999857,110.010002136,9.1499996185,45.5447502136,-73.153503418
9.12095300531216E+017,2172,9.12095300527989E+017,1.531414175E+018,24.6140003204,75.2200012207,0.0299999993,10.2600002289,127.699996948,-0.0970000029,0.8799999952,0.8799999952,110.010002136,9.1499996185,45.5447502136,-73.153503418
9.12095301534458E+017,2173,9.12095301532822E+017,1.531414176E+018,24.6140003204,75.2099990845,0.0299999993,10.2600002289,127.720001221,-0.0970000029,0.8799999952,0.8799999952,110,9.1499996185,45.5447502136,-73.153503418
9.12095302538088E+017,2174,9.12095302536472E+017,1.531414177E+018,24.6140003204,75.2099990845,0.0299999993,10.2600002289,127.739997864,-0.0970000029,0.8600000143,0.8600000143,110,9.1499996185,45.5447654724,-73.1535110474
9.12095303543434E+017,2175,9.12095303540209E+017,1.531414178E+018,24.6130008698,75.1999969482,0.0299999993,10.2600002289,127.769996643,-0.0970000029,0.8799999952,0.8799999952,109.989997864,9.1499996185,45.5447654724,-73.1535110474
9.12095304546867E+017,2176,9.1209530454472E+017,1.531414179E+018,24.6140003204,75.1999969482,0.0299999993,10.2600002289,127.800003052,-0.0970000029,0.8700000048,0.8700000048,109.989997864,9.1499996185,45.5447769165,-73.1535186768
9.1209530555043E+017,2177,9.12095305548386E+017,1.53141418E+018,24.6130008698,75.1200027466,0.0299999993,10.2600002289,127.839996338,-0.0970000029,0.8399999738,0.8399999738,109.980003357,9.1499996185,45.5447921753,-73.1535186768
9.12095306554003E+017,2178,9.12095306551903E+017,1.531414181E+018,24.6130008698,75.0999984741,0.0299999993,10.2600002289,127.870002747,-0.0970000029,0.8199999928,0.8199999928,109.980003357,9.1499996185,45.5447921753,-73.1535186768
9.12095307557411E+017,2179,9.12095307555336E+017,1.531414182E+018,24.6130008698,75.0999984741,0.0299999993,10.2600002289,127.900001526,-0.0970000029,0.8000000119,0.8000000119,109.970001221,9.1499996185,45.5447998047,-73.1535339355
9.12095308561275E+017,2180,9.12095308558636E+017,1.531414183E+018,24.6130008698,75.0999984741,0.0299999993,10.2600002289,127.919998169,-0.0970000029,0.8100000024,0.8100000024,109.959999084,9.1499996185,45.5448112488,-73.1535263062
9.12095309567286E+017,2181,9.12095309565016E+017,1.531414184E+018,24.6130008698,75.0599975586,0.0299999993,10.2600002289,127.949996948,-0.0970000029,0.7900000215,0.7900000215,109.949996948,9.1499996185,45.5448112488,-73.1535263062
9.12095310571133E+017,2182,9.12095310569454E+017,1.531414185E+018,24.6130008698,75.0500030518,0.0299999993,10.2600002289,127.989997864,-0.0970000029,0.7900000215,0.7900000215,109.949996948,9.1499996185,45.5448265076,-73.1535339355
9.12095311574808E+017,2183,9.12095311573055E+017,1.531414186E+018,24.6130008698,75.0500030518,0.0299999993,10.2600002289,128.020004272,-0.0970000029,0.8000000119,0.8000000119,109.949996948,9.1499996185,45.5448379517,-73.1535339355
9.12095312579709E+017,2184,9.12095312577092E+017,1.531414187E+018,24.6130008698,75.0800018311,0.0299999993,10.2600002289,128.050003052,-0.0970000029,0.8000000119,0.8000000119,109.949996948,9.1499996185,45.5448379517,-73.1535339355
9.12095313584152E+017,2185,9.12095313580924E+017,1.531414188E+018,24.6140003204,75.0899963379,0.0299999993,10.2600002289,128.070007324,-0.0970000029,0.7900000215,0.7900000215,109.949996948,9.1499996185,45.5448493958,-73.1535263062
9.1209531459221E+017,2186,9.12095314589807E+017,1.531414189E+018,24.6149997711,75.0999984741,0.0299999993,10.2600002289,128.100006104,-0.0970000029,0.7900000215,0.7900000215,109.949996948,9.1499996185,45.5448646545,-73.1535263062
9.12095315596537E+017,2187,9.12095315594433E+017,1.53141419E+018,24.6149997711,75.0999984741,0.0299999993,10.2600002289,128.119995117,-0.0970000029,0.8000000119,0.8000000119,109.949996948,9.1499996185,45.5448646545,-73.1535263062
9.12095316601003E+017,2188,9.12095316598476E+017,1.531414191E+018,24.6159992218,75.0999984741,0.0299999993,10.2600002289,128.13999939,-0.0970000029,0.8100000024,0.8100000024,109.949996948,9.1499996185,45.5448684692,-73.1535186768
9.12095317605163E+017,2189,9.12095317602703E+017,1.531414192E+018,24.6159992218,75.0899963379,0.0299999993,10.2600002289,128.160003662,-0.0970000029,0.8000000119,0.8000000119,109.949996948,9.1499996185,45.5448799133,-73.1535186768
9.1209531860958E+017,2190,9.12095318607002E+017,1.531414193E+018,24.6170005798,75.0800018311,0.0299999993,10.2600002289,128.190002441,-0.0970000029,0.7900000215,0.7900000215,109.949996948,9.1499996185,45.5448799133,-73.1535186768
9.12095319614192E+017,2191,9.12095319612102E+017,1.531414194E+018,24.6180000305,75.0800018311,0.0299999993,10.2600002289,128.210006714,-0.0970000029,0.7799999714,0.7799999714,109.949996948,9.1499996185,45.5449066162,-73.1535110474
9.12095320618701E+017,2192,9.12095320616011E+017,1.531414195E+018,24.6180000305,75.0500030518,0.0299999993,10.2600002289,128.229995728,-0.0960000008,0.7900000215,0.7900000215,109.949996948,9.1499996185,45.5449066162,-73.1535110474
9.1209532162277E+017,2193,9.12095321620447E+017,1.531414196E+018,24.6180000305,75.0400009155,0.0299999993,10.2600002289,128.25,-0.0960000008,0.8000000119,0.8000000119,109.949996948,9.1499996185,45.5449066162,-73.1535110474
9.120953226277E+017,2194,9.12095322625374E+017,1.531414197E+018,24.6180000305,75.0800018311,0.0299999993,10.2600002289,128.270004272,-0.0960000008,0.8199999928,0.8199999928,109.959999084,9.1499996185,45.5449180603,-73.153503418
9.12095323632398E+017,2195,9.12095323629552E+017,1.531414198E+018,24.6189994812,75.0999984741,0.0299999993,10.2600002289,128.289993286,-0.0960000008,0.8100000024,0.8100000024,109.949996948,9.1499996185,45.5449333191,-73.153503418
9.12095324643529E+017,2196,9.12095324641497E+017,1.531414199E+018,24.6189994812,75.0899963379,0.0299999993,10.2600002289,128.309997559,-0.0960000008,0.8000000119,0.8000000119,109.949996948,9.1499996185,45.5449333191,-73.153503418
9.12095325647195E+017,2197,9.1209532564513E+017,1.5314142E+018,24.6189994812,75.0599975586,0.0299999993,10.2600002289,128.330001831,-0.0960000008,0.8100000024,0.8100000024,109.949996948,9.1499996185,45.5449447632,-73.1535110474
9.12095326651897E+017,2198,9.12095326649821E+017,1.531414201E+018,24.6189994812,75.0500030518,0.0299999993,10.2600002289,128.350006104,-0.0960000008,0.8100000024,0.8100000024,109.949996948,9.1499996185,45.544960022,-73.153503418
9.12095327655734E+017,2199,9.12095327653704E+017,1.531414202E+018,24.6189994812,75.0599975586,0.0299999993,10.2600002289,128.36000061,-0.0960000008,0.8100000024,0.8100000024,109.949996948,9.1499996185,45.544960022,-73.153503418
9.12095328659941E+017,2200,9.12095328657108E+017,1.531414203E+018,24.6180000305,75.0500030518,0.0299999993,10.2600002289,128.380004883,-0.0960000008,0.8000000119,0.8000000119,109.949996948,9.1499996185,45.5449714661,-73.1535186768
9.12095329662969E+017,2201,9.12095329660906E+017,1.531414204E+018,24.6180000305,75.0599975586,0.0299999993,10.2600002289,128.399993896,-0.0970000029,0.8000000119,0.8000000119,109.940002441,9.1499996185,45.5449790955,-73.1535186768
9.12095330666262E+017,2202,9.12095330664202E+017,1.531414205E+018,24.6180000305,75.0800018311,0.0299999993,10.2600002289,128.429992676,-0.0960000008,0.8000000119,0.8000000119,109.949996948,9.1499996185,45.5449790955,-73.1535186768
9.12095331668735E+017,2203,9.12095331666972E+017,1.531414206E+018,24.6170005798,75.1200027466,0.0299999993,10.2600002289,128.449996948,-0.0970000029,0.8000000119,0.8000000119,109.949996948,9.1499996185,45.5449867249,-73.1535110474
9.12095332672376E+017,2204,9.12095332670329E+017,1.531414207E+018,24.6170005798,75.1399993896,0.0299999993,10.2600002289,128.470001221,-0.0970000029,0.8000000119,0.8000000119,109.949996948,9.1499996185,45.5450057983,-73.1535186768
9.12095333676375E+017,2205,9.1209533367382E+017,1.531414208E+018,24.6170005798,75.1500015259,0.0299999993,10.2600002289,128.479995728,-0.0970000029,0.8100000024,0.8100000024,109.959999084,9.1499996185,45.5450057983,-73.1535186768
9.12095334679262E+017,2206,9.12095334677122E+017,1.531414209E+018,24.6170005798,75.1500015259,0.0299999993,10.2600002289,128.5,-0.0970000029,0.8199999928,0.8199999928,109.949996948,9.1499996185,45.5450210571,-73.1535263062
9.12095335681926E+017,2207,9.1209533568032E+017,1.53141421E+018,24.6180000305,75.1500015259,0.0299999993,10.2600002289,128.520004272,-0.0970000029,0.8100000024,0.8100000024,109.949996948,9.1499996185,45.5450248718,-73.1535263062
9.12095336686413E+017,2208,9.12095336684243E+017,1.531414211E+018,24.6170005798,75.1600036621,0.0299999993,10.2600002289,128.539993286,-0.0970000029,0.8000000119,0.8000000119,109.959999084,9.1499996185,45.5450248718,-73.1535263062
9.12095337689495E+017,2209,9.12095337688016E+017,1.531414212E+018,24.6170005798,75.1500015259,0.0299999993,10.2600002289,128.559997559,-0.0970000029,0.7799999714,0.7799999714,109.959999084,9.1499996185,45.5450439453,-73.1535186768
9.12095338693724E+017,2210,9.12095338691694E+017,1.531414213E+018,24.6170005798,75.1500015259,0.0299999993,10.2600002289,128.570007324,-0.0970000029,0.7799999714,0.7799999714,109.959999084,9.1499996185,45.5450515747,-73.1535186768
9.12095339696003E+017,2211,9.12095339694023E+017,1.531414214E+018,24.6170005798,75.1500015259,0.0299999993,10.2600002289,128.580001831,-0.0970000029,0.7699999809,0.7699999809,109.959999084,9.1499996185,45.5450515747,-73.1535186768
9.12095340699467E+017,2212,9.12095340697525E+017,1.531414215E+018,24.6170005798,75.1500015259,0.0299999993,10.2600002289,128.600006104,-0.0970000029,0.7900000215,0.7900000215,109.959999084,9.1499996185,45.5450668335,-73.1535339355
9.12095341703178E+017,2213,9.12095341701357E+017,1.531414216E+018,24.6170005798,75.1600036621,0.0299999993,10.2600002289,128.619995117,-0.0970000029,0.7900000215,0.7900000215,109.959999084,9.1499996185,45.5450782776,-73.1535263062
9.12095342706206E+017,2214,9.12095342704126E+017,1.531414217E+018,24.6170005798,75.1500015259,0.0299999993,10.2600002289,128.63999939,-0.0970000029,0.7900000215,0.7900000215,109.959999084,9.1499996185,45.5450782776,-73.1535263062
9.1209534370908E+017,2215,9.12095343707601E+017,1.531414218E+018,24.6170005798,75.1399993896,0.0299999993,10.2600002289,128.660003662,-0.0970000029,0.8199999928,0.8199999928,109.959999084,9.1499996185,45.5450935364,-73.1535339355
9.12095344713088E+017,2216,9.12095344711051E+017,1.531414219E+018,24.6180000305,75.1299972534,0.0299999993,10.2600002289,128.669998169,-0.0970000029,0.8199999928,0.8199999928,109.970001221,9.1499996185,45.5450973511,-73.1535339355
9.12095345716596E+017,2217,9.12095345714441E+017,1.53141422E+018,24.6189994812,75.1200027466,0.0299999993,10.2600002289,128.690002441,-0.0970000029,0.8199999928,0.8199999928,109.970001221,9.1499996185,45.5450973511,-73.1535339355
9.12095346720053E+017,2218,9.12095346718103E+017,1.531414221E+018,24.6189994812,75.0999984741,0.0299999993,10.2600002289,128.699996948,-0.0970000029,0.8100000024,0.8100000024,109.970001221,9.1499996185,45.5451126099,-73.1535339355
9.12095347724995E+017,2219,9.12095347722698E+017,1.531414222E+018,24.6189994812,75.0899963379,0.0299999993,10.2600002289,128.720001221,-0.0970000029,0.8199999928,0.8199999928,109.959999084,9.1499996185,45.545124054,-73.1535263062
9.12095348729872E+017,2220,9.12095348727006E+017,1.531414223E+018,24.6189994812,75.1100006104,0.0299999993,10.2600002289,128.740005493,-0.0970000029,0.8299999833,0.8299999833,109.970001221,9.1499996185,45.545124054,-73.1535263062
9.12095349733301E+017,2221,9.12095349731069E+017,1.531414224E+018,24.6200008392,75.0999984741,0.0299999993,10.2600002289,128.75,-0.0970000029,0.8100000024,0.8100000024,109.970001221,9.1499996185,45.5451393127,-73.1535339355
9.12095350736696E+017,2222,9.12095350734908E+017,1.531414225E+018,24.6189994812,75.1100006104,0.0299999993,10.2600002289,128.770004272,-0.0970000029,0.8199999928,0.8199999928,109.959999084,9.1499996185,45.5451507568,-73.1535339355
9.12095351740292E+017,2223,9.12095351738484E+017,1.531414226E+018,24.6200008392,75.1100006104,0.0299999993,10.2600002289,128.779998779,-0.0970000029,0.8299999833,0.8299999833,109.959999084,9.1499996185,45.5451507568,-73.1535339355
9.12095352744327E+017,2224,9.12095352742078E+017,1.531414227E+018,24.6200008392,75.1299972534,0.0299999993,10.2600002289,128.789993286,-0.0970000029,0.8299999833,0.8299999833,109.959999084,9.1499996185,45.5451622009,-73.1535186768
9.12095353747655E+017,2225,9.12095353745804E+017,1.531414228E+018,24.6189994812,75.1200027466,0.0299999993,10.2600002289,128.800003052,-0.0970000029,0.8000000119,0.8000000119,109.959999084,9.1499996185,45.545173645,-73.1535110474
9.12095354751464E+017,2226,9.12095354749674E+017,1.531414229E+018,24.6180000305,75.1100006104,0.0299999993,10.2600002289,128.809997559,-0.0970000029,0.8100000024,0.8100000024,109.959999084,9.1499996185,45.545173645,-73.1535110474
9.12095355755542E+017,2227,9.12095355753341E+017,1.53141423E+018,24.6189994812,75.1100006104,0.0299999993,10.2600002289,128.820007324,-0.0970000029,0.8100000024,0.8100000024,109.959999084,9.1499996185,45.5451850891,-73.1535110474
9.12095356759181E+017,2228,9.12095356757047E+017,1.531414231E+018,24.6189994812,75.1100006104,0.0299999993,10.2600002289,128.839996338,-0.0970000029,0.8000000119,0.8000000119,109.959999084,9.1499996185,45.5451927185,-73.153503418
9.12095357762914E+017,2229,9.12095357760704E+017,1.531414232E+018,24.6200008392,75.1100006104,0.0299999993,10.2600002289,128.850006104,-0.0970000029,0.7900000215,0.7900000215,109.970001221,9.1499996185,45.5451927185,-73.153503418
9.12095358766702E+017,2230,9.12095358764549E+017,1.531414233E+018,24.6200008392,75.0999984741,0.0299999993,10.2600002289,128.86000061,-0.0970000029,0.7699999809,0.7699999809,109.970001221,9.1499996185,45.5452041626,-73.153503418
9.12095359769994E+017,2231,9.12095359767919E+017,1.531414234E+018,24.6200008392,75.1200027466,0.0299999993,10.2600002289,128.880004883,-0.0970000029,0.7699999809,0.7699999809,109.970001221,9.1499996185,45.545211792,-73.153503418
9.12095360774034E+017,2232,9.12095360772072E+017,1.531414235E+018,24.6200008392,75.1100006104,0.0299999993,10.2600002289,128.88999939,-0.0970000029,0.8100000024,0.8100000024,109.970001221,9.1499996185,45.545211792,-73.153503418
9.1209536177781E+017,2233,9.12095361775639E+017,1.531414236E+018,24.6189994812,75.0999984741,0.0299999993,10.2600002289,128.910003662,-0.0970000029,0.8100000024,0.8100000024,109.970001221,9.1499996185,45.5452232361,-73.1534957886
9.12095362781257E+017,2234,9.12095362779474E+017,1.531414237E+018,24.6189994812,75.1299972534,0.0299999993,10.2600002289,128.919998169,-0.0970000029,0.8000000119,0.8000000119,109.980003357,9.1499996185,45.5452308655,-73.1534957886
9.12095363784584E+017,2235,9.12095363783026E+017,1.531414238E+018,24.6189994812,75.1399993896,0.0299999993,10.2600002289,128.919998169,-0.0970000029,0.8100000024,0.8100000024,109.980003357,9.1499996185,45.5452308655,-73.1534957886
9.12095364788308E+017,2236,9.12095364786192E+017,1.531414239E+018,24.6200008392,75.1500015259,0.0299999993,10.2600002289,128.919998169,-0.0970000029,0.8100000024,0.8100000024,109.980003357,9.1499996185,45.5452384949,-73.1534805298
9.12095365791534E+017,2237,9.12095365789765E+017,1.53141424E+018,24.6200008392,75.1399993896,0.0299999993,10.2600002289,128.919998169,-0.0970000029,0.8000000119,0.8000000119,109.980003357,9.1499996185,45.5452384949,-73.1534805298
9.1209536679576E+017,2238,9.12095366793598E+017,1.531414241E+018,24.6200008392,75.1399993896,0.0299999993,10.2600002289,128.910003662,-0.0970000029,0.8100000024,0.8100000024,109.980003357,9.1499996185,45.5452384949,-73.1534805298
9.12095367799613E+017,2239,9.12095367798013E+017,1.531414242E+018,24.6200008392,75.1399993896,0.0299999993,10.2600002289,128.899993896,-0.0970000029,0.8299999833,0.8299999833,110,9.1499996185,45.5452423096,-73.1534500122
9.12095368802432E+017,2240,9.12095368800678E+017,1.531414243E+018,24.6200008392,75.1399993896,0.0299999993,10.2600002289,128.88999939,-0.0970000029,0.8299999833,0.8299999833,110,9.1499996185,45.5452423096,-73.1534500122
9.1209536980528E+017,2241,9.12095369803763E+017,1.531414244E+018,24.6189994812,75.1299972534,0.0299999993,10.2600002289,128.880004883,-0.0970000029,0.8199999928,0.8199999928,110.010002136,9.1499996185,45.5452423096,-73.1534500122
9.12095370808842E+017,2242,9.12095370806816E+017,1.531414245E+018,24.6189994812,75.1299972534,0.0299999993,10.2600002289,128.86000061,-0.0970000029,0.8500000238,0.8500000238,110.010002136,9.1499996185,45.5452384949,-73.153427124
9.12095371812523E+017,2243,9.12095371810364E+017,1.531414246E+018,24.6189994812,75.1299972534,0.0299999993,10.2600002289,128.850006104,-0.0970000029,0.8399999738,0.8399999738,110.010002136,9.1499996185,45.5452384949,-73.153427124
9.12095372816148E+017,2244,9.12095372813994E+017,1.531414247E+018,24.6200008392,75.1299972534,0.0299999993,10.2600002289,128.839996338,-0.0970000029,0.8399999738,0.8399999738,110.010002136,9.1499996185,45.5452384949,-73.153427124
9.12095373819913E+017,2245,9.12095373817633E+017,1.531414248E+018,24.6200008392,75.1500015259,0.0299999993,10.2600002289,128.830001831,-0.0970000029,0.8700000048,0.8700000048,110.019996643,9.1499996185,45.5452346802,-73.1533966064
9.12095374824682E+017,2246,9.1209537482183E+017,1.531414249E+018,24.6210002899,75.1500015259,0.0299999993,10.2600002289,128.820007324,-0.0970000029,0.8399999738,0.8399999738,110.029998779,9.1499996185,45.5452346802,-73.1533966064
9.12095375828256E+017,2247,9.12095375825381E+017,1.53141425E+018,24.6219997406,75.1399993896,0.0299999993,10.2600002289,128.820007324,-0.0970000029,0.8199999928,0.8199999928,110.029998779,9.1499996185,45.5452346802,-73.1533966064
9.12095376834696E+017,2248,9.12095376830085E+017,1.531414251E+018,24.6229991913,75.1299972534,0.0299999993,10.2600002289,128.820007324,-0.0970000029,0.8100000024,0.8100000024,110.040000916,9.1599998474,45.5452232361,-73.1533737183
9.12095377838241E+017,2249,9.12095377836205E+017,1.531414252E+018,24.6240005493,75.1299972534,0.0299999993,10.2600002289,128.820007324,-0.0970000029,0.8100000024,0.8100000024,110.050003052,9.1599998474,45.5452156067,-73.1533660889
9.12095378840933E+017,2250,9.12095378838897E+017,1.531414253E+018,24.625,75.1200027466,0.0299999993,10.2600002289,128.809997559,-0.0970000029,0.8100000024,0.8100000024,110.059997559,9.1599998474,45.5452156067,-73.1533660889
9.12095379844488E+017,2251,9.12095379842296E+017,1.531414254E+018,24.6259994507,75.1200027466,0.0299999993,10.2600002289,128.809997559,-0.0970000029,0.8299999833,0.8299999833,110.059997559,9.1599998474,45.5452079773,-73.1533508301
9.12095380847401E+017,2252,9.12095380845624E+017,1.531414255E+018,24.6270008087,75.1200027466,0.0299999993,10.2700004578,128.800003052,-0.0970000029,0.8399999738,0.8399999738,110.059997559,9.1599998474,45.5451965332,-73.1533584595
9.1209538185072E+017,2253,9.12095381848987E+017,1.531414256E+018,24.6280002594,75.0899963379,0.0299999993,10.2700004578,128.789993286,-0.0970000029,0.8600000143,0.8600000143,110.059997559,9.1599998474,45.5451965332,-73.1533584595
9.12095382854232E+017,2254,9.12095382852267E+017,1.531414257E+018,24.6289997101,75.0800018311,0.0299999993,10.2700004578,128.779998779,-0.0970000029,0.8500000238,0.8500000238,110.069999695,9.1599998474,45.5451812744,-73.1533508301
9.12095383856921E+017,2255,9.12095383854904E+017,1.531414258E+018,24.6299991608,75.0999984741,0.0299999993,10.2700004578,128.779998779,-0.0970000029,0.8500000238,0.8500000238,110.069999695,9.1599998474,45.5451812744,-73.1533508301
9.12095384860574E+017,2256,9.12095384858392E+017,1.531414259E+018,24.6299991608,75.0999984741,0.0299999993,10.2700004578,128.779998779,-0.0960000008,0.8600000143,0.8600000143,110.080001831,9.1599998474,45.5451812744,-73.1533508301
9.12095385863464E+017,2257,9.12095385861866E+017,1.53141426E+018,24.6299991608,75.1200027466,0.0299999993,10.2700004578,128.779998779,-0.0960000008,0.8299999833,0.8299999833,110.080001831,9.1599998474,45.5451583862,-73.1533508301
9.12095386866774E+017,2258,9.12095386864735E+017,1.531414261E+018,24.6299991608,75.1200027466,0.0299999993,10.2700004578,128.789993286,-0.0960000008,0.8399999738,0.8399999738,110.089996338,9.1599998474,45.5451583862,-73.1533508301
9.12095387871429E+017,2259,9.12095387868634E+017,1.531414262E+018,24.6299991608,75.1399993896,0.0299999993,10.2700004578,128.800003052,-0.0970000029,0.8199999928,0.8199999928,110.089996338,9.1599998474,45.5451583862,-73.1533508301
9.12095388874795E+017,2260,9.12095388872934E+017,1.531414263E+018,24.6299991608,75.1399993896,0.0299999993,10.2700004578,128.820007324,-0.0960000008,0.8199999928,0.8199999928,110.089996338,9.1599998474,45.5451316833,-73.1533584595
9.1209538987809E+017,2261,9.12095389876444E+017,1.531414264E+018,24.6299991608,75.1299972534,0.0299999993,10.2700004578,128.839996338,-0.0960000008,0.8199999928,0.8199999928,110.099998474,9.1599998474,45.545124054,-73.1533660889
